,District,Latitude,longitude,ACTIVE CASES,CONFIRMED CASES,DECEASED CASES,RECOVERED CASES
0,Baksa,26.6935,91.5984,234,687,6,447
1,Barpeta,26.34142215,91.01674328474073,89,1121,8,1024
2,Biswanath,26.7773957,93.25694367444689,85,467,3,379
3,Bongaigaon,26.4800126,90.5580387,464,1303,5,834
4,Cachar,24.758639950000003,92.88166475768219,4683,6216,35,1498
5,Charaideo,27.06971635,95.06426298389661,-2,113,10,105
6,Chirang,26.6464231,90.62415698729875,54,280,7,219
7,Darrang,26.75,92.5,219,1967,18,1730
8,Dhemaji,27.466831499999998,94.51786508708852,317,765,8,440
9,Dhubri,26.01894625,89.94188952461522,497,1723,11,1215
10,Dibrugarh,27.4844597,94.9019447,6989,9486,88,2409
11,Dima Hasao,25.400362549999997,93.07522922678905,37,237,1,199
12,Goalpara,26.1783623,90.6226683,38,658,6,568
13,Golaghat,26.40490095,94.03209112120626,2108,3803,39,1656
14,Hailakandi,24.68845365,92.57381528240944,509,1632,7,1116
15,Hojai,26.009390850000003,92.84879014262606,473,1646,13,1160
16,Jorhat,26.7577925,94.2079645,6971,8771,48,1752
17,Kamrup,26.12755515,91.2998714797357,2489,4590,27,2074
18,Kamrup Metropolitan,26.13526375,91.86167062524619,32151,46878,128,14599
19,Karbi Anglong,26.0,93.5,70,632,10,552
20,Karimganj,24.8483482,92.33221292310328,219,1200,26,955
21,Kokrajhar,26.58687695,90.29293105124796,44,408,11,353
22,Lakhimpur,27.985060150000002,80.75384538357649,1849,3006,22,1135
23,Majuli,27.021952849999998,94.32742302965544,79,165,6,80
24,Morigaon,26.2578325,92.3419427,73,638,8,557
25,Nagaon,26.30414915,92.71605974430346,1989,4515,20,2506
26,Nalbari,26.42386165,91.4512275462117,106,948,14,828
27,Sivasagar,26.9834936,94.6394226,28,529,28,473
28,Sonitpur,26.767770749999997,92.70140885850532,807,2548,14,1727
29,South Salmara Mankachar,25.7604472,89.8928061082699,3,51,1,47
30,Tinsukia,27.52016575,95.5306347312879,1536,3366,32,1798
31,Udalguri,26.776480300000003,92.10537533897156,86,758,6,666
32,West Karbi Anglong,25.85291415,92.58756812404593,1,39,1,37
33,Araria,26.26498795,87.37162648106798,294,6319,17,6008
34,Arwal,25.180777149999997,84.65920203021554,56,2032,9,1967
35,Aurangabad,19.877263,75.3390241,219,4305,11,4075
36,Banka,24.8655681,86.87278642295597,110,2986,12,2864
37,Begusarai,25.5127194,86.09057109140021,69,6772,29,6674
38,Bhagalpur,25.28669805,87.13225355111148,304,8345,66,7975
39,Bhojpur,25.25,84.25,191,4580,36,4353
40,Buxar,25.562071500000002,84.01567204651289,33,3657,14,3610
41,Darbhanga,26.08314325,86.03257096612822,157,3500,29,3314
42,East Champaran,26.6460551,84.9135447,280,7610,42,7288
43,Gaya,24.7964355,85.0079563,325,6549,48,6176
44,Gopalganj,26.4207265,84.37406407415165,150,5073,7,4916
45,Jamui,24.967852049999998,86.17351147289283,138,2798,7,2653
46,Jehanabad,25.15247135,85.00687848982191,213,3601,12,3376
47,Kaimur,24.974864349999997,83.57643904700731,54,1790,9,1727
48,Katihar,25.560900349999997,87.64765353997149,171,6457,11,6275
49,Khagaria,25.4916868,86.69910848212217,64,2865,11,2790
50,Kishanganj,26.29863795,87.95314810923409,221,3674,10,3443
51,Lakhisarai,25.167702900000002,86.05935924304018,97,3214,8,3109
52,Madhepura,25.9259562,86.82042961035677,243,4211,10,3958
53,Madhubani,26.350071999999997,86.22914688962271,216,6863,22,6625
54,Munger,25.22081165,86.51720367235285,247,3559,40,3272
55,Muzaffarpur,26.1486581,85.34001282479626,572,9641,38,9031
56,Nalanda,25.1364914,85.44365464855682,331,6948,48,6569
57,Nawada,24.818123999999997,85.5185562336921,254,3370,17,3099
58,Patna,25.6093239,85.1235252,2472,34680,259,31949
59,Purnia,25.7773601,87.4731227,331,7887,13,7543
60,Rohtas,24.93928775,84.01945448852067,152,6134,37,5945
61,Saharsa,25.83264165,86.61489283342814,349,5738,8,5381
62,Samastipur,25.7744929,85.86626813370123,227,4594,33,4334
63,Saran,25.90835495,84.78074760594323,192,6058,38,5828
64,Sheikhpura,25.12635425,85.81510620944194,141,2759,7,2611
65,Sheohar,26.49436945,85.27280559513999,35,1208,1,1172
66,Sitamarhi,26.5876547,85.5056744,96,3771,12,3663
67,Siwan,26.1310043,84.39125660595198,204,4108,20,3884
68,Supaul,23.7337,69.8597,135,4876,14,4727
69,Vaishali,25.95322565,85.14457760191539,128,4735,36,4570
70,West Champaran,26.6919717,84.5796928,168,5438,17,5253
71,Chandigarh,30.7194022,76.7646552,633,14085,222,13230
72,Balod,20.73218365,81.14335738365043,687,4224,15,3522
73,Baloda Bazar,21.572645950000002,82.43670691696435,346,4935,77,4512
74,Balrampur,27.4504805,82.39541774073132,497,2015,6,1512
76,Bastar,19.11912825,81.82918648971713,91,6135,22,6022
77,Bijapur,18.769041350000002,80.74151192966231,89,3273,6,3178
78,Bilaspur,28.8680526,79.29838501460121,96,11252,89,11067
80,Dhamtari,20.537276650000003,81.70915145737666,246,4386,54,4086
81,Durg,21.19903535,81.3979545573657,1287,15540,380,13873
82,Gariaband,20.42857015,82.24698984817437,53,2325,25,2247
83,Janjgir Champa,21.967126399999998,82.6647242496104,1458,10134,84,8592
84,Jashpur,22.76678355,83.95304518953317,430,1818,10,1378
86,Kondagaon,19.70436465,81.74655021128783,689,2964,12,2263
87,Korba,22.51976955,82.62951462416818,1660,7928,37,6231
88,Koriya,23.431414349999997,82.31393341197054,391,2733,22,2320
89,Mahasamund,21.1882332,82.48484762499999,311,4095,65,3719
90,Mungeli,22.24451625,81.65401093817499,362,2616,12,2242
91,Narayanpur,26.96392335,93.82558573585581,204,1758,1,1553
92,Raigarh,22.5,83.5,1922,12176,130,10124
93,Raipur,21.2379469,81.6336833,7358,40528,543,32627
94,Rajnandgaon,20.9727404,80.69155548263583,979,11345,82,10284
95,Sukma,18.26654225,81.29252341475065,537,3050,5,2508
96,Surajpur,23.35151515,82.97290272665015,389,3166,19,2758
97,Surguja,22.94941835,83.1655491457949,539,4217,40,3638
98,Uttar Bastar Kanker,20.1270026,80.98109349472911,440,4124,33,3651
99,Gaurela Pendra Marwahi,23.0043821,82.0572281,119,567,2,446
100,Central Delhi,28.69854835,77.21939141568413,184,184,0,0
101,East Delhi,28.6204767,77.30918071344418,38,38,0,0
102,New Delhi,28.6138954,77.2090057,37,37,0,0
103,North Delhi,28.6138954,77.2090057,60,60,0,0
104,North East Delhi,28.72330795,77.26685650778668,25,25,0,0
105,North West Delhi,28.6138954,77.2090057,31,32,1,0
106,Shahdara,28.6733333,77.2890248,48,48,0,0
107,South Delhi,28.485169399999997,77.19637972381611,70,70,0,0
108,South East Delhi,28.5444411,77.27287301731174,130,130,0,0
109,South West Delhi,28.58644805,76.97915298462692,42,42,0,0
110,West Delhi,28.6479519,77.08556541088615,122,122,0,0
111,Dadra and Nagar Haveli,20.2733604,73.0044988,25,1570,1,1539
112,Daman,20.42000485,72.86376290300566,23,1344,1,1299
113,Diu,20.7137783,70.9853635,3,312,0,309
114,North Goa,15.60444125,74.00172406307475,1639,2668,65,964
115,South Goa,15.21961365,74.1152813019196,1978,3511,126,1407
116,Ahmedabad,23.0216238,72.5797068,3625,41628,1892,36111
117,Amreli,20.866667,70.75,441,2728,25,2262
118,Anand,22.5584995,72.9625629,65,1388,16,1307
119,Aravalli,16.6299629,81.6057455,72,715,24,619
120,Banaskantha,24.172056,72.431134,-17,2626,29,2614
121,Bharuch,21.75,73.0,187,2824,16,2621
122,Bhavnagar,21.7718836,72.1416449,95,4694,67,4532
123,Botad,22.1686,71.6685,110,832,5,717
124,Chhota Udaipur,22.3048651,74.0126114,96,624,3,525
125,Dahod,22.8358542,74.2556782,275,1899,6,1618
126,Dang,20.8254,73.7007,4,120,0,116
127,Devbhumi Dwarka,22.2471009,68.9742446,104,739,5,630
128,Gandhinagar,23.2232877,72.6492267,826,4727,90,3811
129,Gir Somnath,20.8907001,70.4025266,166,1752,23,1563
130,Jamnagar,22.4732415,70.0552102,355,8131,35,7741
131,Junagadh,21.5174104,70.4642754,261,3570,33,3276
132,Kheda,22.75,72.833333,81,1540,15,1444
133,Kutch,23.7337,69.8597,314,2680,33,2333
134,Mahisagar,23.1916967,73.6626352964019,75,1205,7,1123
135,Mehsana,23.588,72.3693,263,3732,31,3438
136,Morbi,22.8176662,70.8345928,203,2102,16,1883
137,Narmada,22.6737188,77.5795269,147,1268,1,1120
138,Navsari,20.952407,72.9323831,49,1334,7,1278
139,Panchmahal,28.6271026,77.31016493548915,287,2806,20,2499
140,Patan,23.77405735,71.68373465668734,201,2421,45,2175
141,Porbandar,21.6409,69.611,14,551,4,533
142,Rajkot,22.3051991,70.8028335,859,12327,159,11309
143,Sabarkantha,24.0294885,73.0459884,14,1599,11,1574
144,Surat,21.1702,72.8311,1898,35787,836,33053
145,Surendranagar,22.75,71.666667,366,2298,12,1920
146,Tapi,21.1787195,75.44245,6,779,6,767
147,Vadodara,22.2973142,73.1942567,2155,15251,209,12887
148,Valsad,20.4324018,73.1411715553577,19,1242,9,1214
149,Bilaspur,28.8680526,79.29838501460121,106,1209,7,1096
150,Chamba,32.5534,76.1258,74,1106,15,1008
151,Hamirpur,25.81986155,79.86324262584287,190,1201,12,999
152,Kangra,32.06854705,76.24336792335127,168,2899,61,2670
153,Kinnaur,31.586346,78.3968441,76,287,5,206
154,Kullu,32.00186325,77.37899639741332,393,1304,21,888
155,Lahaul and Spiti,32.5038495,77.58227188236428,61,319,1,257
156,Mandi,33.868829899999994,74.31880472886633,471,2710,34,2205
157,Shimla,31.1041526,77.1709729,428,2257,65,1748
158,Sirmaur,30.75,77.5,154,2226,16,2056
159,Solan,30.92589585,77.08200509063624,287,3555,36,3232
160,Una,31.4685,76.2708,103,1513,15,1395
161,Ambala,30.3843674,76.770421,178,8844,106,8560
162,Bhiwani,28.7931703,76.1391283,201,3585,52,3332
163,Charkhi Dadri,28.5919933,76.2719817,185,872,8,679
164,Faridabad,28.402837,77.3085626,919,24099,244,22936
165,Fatehabad,27.02766825,78.2074341134146,355,2932,57,2520
166,Gurugram,28.4646148,77.0299194,2888,27975,204,24883
167,Hisar,29.168807,75.7461103,1084,9127,120,7923
169,Jhajjar,28.5336844,76.68981212035648,269,3326,35,3022
170,Jind,29.38209845,76.3141308591687,228,2652,50,2374
171,Kaithal,29.7444561,76.42555011591303,98,2891,43,2750
172,Karnal,29.6803266,76.9896254,191,8164,116,7857
173,Kurukshetra,29.9693747,76.8482787,330,6541,100,6111
174,Mahendragarh,28.25,76.166667,488,4598,7,4103
175,Nuh,28.097345150000002,77.05085582101852,23,1250,26,1201
176,Palwal,28.12502575,77.35831300773046,110,3248,20,3118
177,Panchkula,30.616216450000003,77.04197804321875,168,6984,110,6706
178,Panipat,29.3912753,76.9771675,216,7886,101,7569
179,Rewari,28.1956468,76.6165179,553,7320,34,6733
180,Rohtak,28.9010899,76.5801935,732,7382,72,6578
181,Sirsa,29.583333,75.083333,347,4998,79,4572
182,Sonipat,29.0033144,77.0167323,427,9749,50,9272
183,Yamunanagar,30.2112003,77.28638972360895,164,5034,103,4767
184,Bokaro,23.699127949999998,85.99106894165021,339,5209,45,4825
185,Chatra,24.20162495,84.87817691941733,60,1299,10,1229
186,Deoghar,24.4766423,86.60673245386945,92,2980,18,2870
187,Dhanbad,23.7952809,86.4309638,441,6145,80,5624
188,Dumka,24.2538512,87.30064714192224,121,1226,9,1096
189,East Singhbhum,22.5,85.5,1298,16041,332,14411
190,Garhwa,24.15529035,83.82522584408349,65,2435,10,2360
191,Giridih,24.1608897,86.25113503301655,69,3273,13,3191
192,Godda,24.74334305,87.29285061796858,46,1909,9,1854
193,Gumla,23.0916741,84.5738480719802,140,2006,2,1864
194,Hazaribagh,23.9675151,85.43884568595615,109,3988,26,3853
195,Jamtara,23.9232867,86.77353493891458,125,1030,2,903
196,Khunti,23.10018105,85.3454593617985,131,1917,5,1781
197,Koderma,24.4931239,85.55608107203881,25,3247,28,3194
198,Latehar,23.74186545,84.51301366522105,26,1690,5,1659
199,Lohardaga,23.46920055,84.73568423071751,56,1538,8,1474
200,Pakur,24.6379064,87.8556962,33,840,2,805
201,Palamu,23.916667,84.083333,50,3007,14,2943
202,Ramgarh,24.517725249999998,87.26258572061664,119,3922,23,3780
203,Ranchi,23.3700354,85.3250132,1830,25116,171,23115
204,Sahibganj,25.2820998,87.61850784289338,38,1499,9,1452
205,Saraikela-Kharsawan,22.7464225,85.91689291046393,234,3398,11,3153
206,Simdega,22.6664325,84.5502679119221,104,1849,4,1741
207,West Singhbhum,22.5,85.5,115,4342,36,4191
208,Anantnag,33.7366359,75.1457394,338,4183,74,3771
209,Bandipora,34.497502749999995,74.69995089313494,269,3981,45,3667
210,Baramulla,34.205005650000004,74.36221081111597,1414,5675,143,4118
211,Budgam,34.04796585,74.7441397838328,327,5877,92,5458
212,Doda,33.1774307,75.56752281893789,155,2615,45,2415
213,Ganderbal,34.2154914,74.7723191,194,3440,32,3214
214,Jammu,32.7185614,74.8580917,890,17013,249,15874
215,Kathua,32.4288215,75.56286458392415,45,2387,30,2312
216,Kishtwar,33.2761171,75.8169238781403,173,1849,14,1662
217,Kulgam,33.669800550000005,75.01480232217389,104,2460,46,2310
218,Kupwara,34.611023599999996,74.238478667319,400,4311,71,3840
219,Mirpur,33.1486351,73.7482102,0,0,0,0
220,Muzaffarabad,34.3734751,73.4702407,0,0,0,0
221,Pulwama,33.89829355,74.89634093792017,243,4573,80,4250
222,Punch,33.8963394,74.1459198,267,2219,22,1930
223,Rajouri,33.3772495,74.3132332,126,3172,46,3000
224,Ramban,33.211637100000004,75.20509890752818,66,1563,13,1484
225,Reasi,33.069103150000004,74.8378698208889,75,1229,7,1147
226,Samba,32.553,75.1108,372,2135,25,1738
228,Srinagar,34.0747444,74.8204443,1645,18729,346,16738
229,Udhampur,33.0,75.166667,105,2637,29,2503
230,Bagalkote,16.1853166,75.6967919,328,12983,131,12524
231,Ballari,15.2485413,76.8323648,1618,36862,525,34719
232,Belagavi,15.8572666,74.5069343,732,24452,328,23392
233,Bengaluru Rural,13.18077825,77.34174236923371,3602,15827,122,12103
234,Bengaluru Urban,12.94514225,77.55364499971128,49224,327376,3754,274397
235,Bidar,17.9104,77.5199,76,6851,163,6608
236,Chamarajanagara,11.9238058,76.9393558,334,5809,110,5354
237,Chikkaballapura,13.4358702,77.7312434,830,10881,107,9943
238,Chikkamagaluru,13.5,75.5,708,12111,136,11267
239,Chitradurga,14.2266443,76.4005122,773,11995,56,11166
240,Dakshina Kannada,12.82133045,75.22767162650372,2427,29693,667,26597
241,Davanagere,14.4661266,75.9206361,843,20482,254,19385
242,Dharwad,15.4540505,75.0066516,910,20539,554,19075
243,Gadag,15.4263647,75.6300786,248,10408,140,10020
244,Hassan,13.0070817,76.0992703,143,24311,367,23801
245,Haveri,14.7874825,75.3996731,354,10106,182,9570
246,Kalaburagi,17.166667,77.083333,638,19518,306,18574
247,Kodagu,12.3822808,75.66523533586208,306,4720,61,4353
248,Kolar,13.1369996,78.1339606,641,8100,150,7309
249,Koppal,15.3484144,76.1547421,535,13257,273,12449
250,Mandya,12.5238888,76.8961961,1300,16246,140,14806
251,Mysuru,12.3051828,76.6553609,2157,46844,949,43738
252,Raichur,16.083333,77.166667,394,13166,147,12625
253,Ramanagara,12.7252766,77.2804797,252,6699,67,6380
254,Shivamogga,13.9311723,75.569737,1062,20247,341,18844
255,Tumakuru,13.3400771,77.1006208,2193,20185,331,17661
256,Udupi,13.3419169,74.7473232,1082,21562,179,20301
257,Uttara Kannada,14.724474149999999,74.64223734496612,1003,12557,152,11402
258,Vijayapura,16.666667,75.916667,393,12148,191,11564
259,Yadgir,16.7689044,77.1380381,317,9976,61,9598
260,Alappuzha,9.48870715,76.41521381074048,7265,29259,91,21889
261,Ernakulam,9.9825665,76.2990313,11626,41191,134,29422
262,Idukki,9.8497872,76.9797914,1931,6736,7,4796
263,Kannur,11.8762254,75.3738043,5759,22930,99,17068
264,Kasaragod,12.421713050000001,75.19044977266321,2548,17895,69,15274
265,Kollam,8.8879509,76.5955013,6089,30501,100,24307
266,Kottayam,9.6287383,76.64553257124857,7340,21304,44,13920
267,Kozhikode,11.2586082,75.7788735,9454,43865,122,34283
268,Malappuram,11.10684475,76.10995510466662,11694,48526,141,36683
269,Palakkad,10.7691989,76.6512469,7690,24210,49,16470
270,Pathanamthitta,9.27854005,76.97405942942743,2640,14167,10,11516
271,Thiruvananthapuram,8.5241122,76.9360573,8701,55356,380,46232
272,Thrissur,10.5256264,76.2132542,10074,34821,97,24644
273,Wayanad,11.715219000000001,76.12690294658198,934,6457,10,5513
274,Kargil,34.420542600000005,75.6467756307598,139,1835,38,1658
275,Leh,34.1642029,77.5848133,552,4143,33,3558
276,Lakshadweep,10.8832771,72.8171069,0,0,0,0
277,Ahmednagar,19.162772500000003,74.85802430085195,6152,54831,841,47838
278,Akola,20.7618624,77.19217162524623,886,8458,271,7300
279,Amravati,21.15454115,77.64429617998744,1072,16746,348,15326
280,Aurangabad,19.877263,75.3390241,3461,41465,967,37037
281,Beed,18.9904059,75.7542291,1641,13440,405,11394
282,Bhandara,27.604285400000002,84.64526207773613,1101,8454,187,7166
283,Buldhana,20.583333,76.416667,1782,10107,164,8161
284,Chandrapur,26.21231825,91.89620684881584,4213,15420,231,10976
285,Dhule,21.13050145,74.47891180551228,384,14088,340,13362
286,Gadchiroli,19.759070350000002,80.16228072580182,885,4798,34,3879
287,Gondia,-0.0891,97.8567,1004,9467,110,8353
288,Hingoli,19.54140965,77.17376601317515,530,3592,74,2988
289,Jalgaon,20.84351185,75.52592658756026,2060,53113,1339,49714
290,Jalna,19.9182328,75.8686246900443,664,10056,269,9123
291,Kolhapur,16.7028412,74.2405329,1335,46881,1599,43947
292,Latur,18.35146855,76.7551212230513,2456,20425,597,17372
293,Mumbai,18.9387711,72.8353355,17860,252085,10142,223586
294,Mumbai Suburban,19.13095765,72.88593095460952,0,0,0,0
295,Nagpur,21.1498134,79.0820556,5536,100199,2694,91959
296,Nanded,19.17257215,77.29141237169956,2460,18920,511,15949
297,Nandurbar,21.365998949999998,74.28400358178766,507,6303,138,5658
298,Nashik,20.0112475,73.7902364,6591,92318,1525,84202
299,Osmanabad,18.16984395,76.11796321159572,1267,15068,493,13308
300,Palghar,19.68086385,72.82537342511341,3320,42381,946,38115
301,Parbhani,19.29031365,76.60290343431203,916,6528,234,5378
302,Pune,18.521428,73.8544541,24352,330228,6607,299267
303,Raigad,18.4928092,73.13807095426539,3983,58800,1389,53426
304,Ratnagiri,17.282607900000002,73.4569787039826,1331,9892,369,8192
305,Sangli,16.8502534,74.5948885,2946,45984,1516,41522
306,Satara,17.63612885,74.29827807601782,5354,46438,1395,39687
307,Sindhudurg,16.135719299999998,73.65220860183584,652,4877,131,4094
308,Solapur,17.84990665,75.27632027348457,3376,42948,1413,38158
309,Thane,19.1943294,72.9701779,20820,219583,5288,193474
310,Wardha,20.82562315,78.61314549522919,565,6420,196,5658
311,Washim,20.28792095,77.23606281061035,505,5646,131,5009
312,Yavatmal,20.325703750000002,78.11691396684715,643,10607,310,9654
313,East Garo Hills,25.61849455,90.63421621777749,50,182,1,131
314,East Jaintia Hills,25.25157605,92.48405006942016,11,411,0,397
315,East Khasi Hills,25.405680850000003,91.83546771298455,956,5791,73,4762
316,North Garo Hills,25.8619841,90.70177048839348,19,86,0,67
318,South Garo Hills,25.347969,90.56577725964563,27,96,0,69
319,South West Garo Hills,25.448052699999998,89.9987852968616,4,94,2,88
320,South West Khasi Hills,25.330722100000003,91.32645013786319,3,47,0,44
321,West Garo Hills,25.60780175,90.20380106122235,165,1113,2,946
322,West Jaintia Hills,25.4425965,92.29882747091773,84,177,1,92
323,West Khasi Hills,25.58173695,91.28910306371017,51,130,1,78
324,Bishnupur,24.562463649999998,93.8012483746545,551,614,5,58
325,Chandel,24.3197442,94.02109882254321,228,238,6,4
326,Churachandpur,24.378704,93.69700149533944,906,979,15,58
327,Imphal East,24.85154025,94.00947957721581,3081,3134,37,16
328,Imphal West,24.757326,93.85847858025147,4836,4923,35,52
329,Jiribam,24.6778472,93.1549000879473,202,204,0,2
330,Kakching,24.38904015,93.88013239529906,444,473,2,27
331,Kamjong,24.8409769,94.52830740954334,192,209,0,17
332,Kangpokpi,25.1524326,93.9714932,460,486,7,19
333,Noney,24.8625867,93.6237454,256,275,1,18
334,Pherzawl,24.2595653,93.1906004,18,33,0,15
335,Senapati,25.380439600000003,94.0569854178655,363,384,0,21
336,Tamenglong,24.935401300000002,93.56791112289724,750,785,3,32
337,Tengnoupal,24.31392145,94.23756082375633,174,188,1,13
338,Thoubal,24.624587,94.04247928402684,1550,1598,25,23
339,Ukhrul,25.109266849999997,94.38239281654197,391,409,0,18
340,Agar Malwa,23.9342963,76.14523314122312,23,464,9,432
341,Alirajpur,22.285939550000002,74.35468608752092,7,1051,13,1031
342,Anuppur,23.03525965,81.3884438474638,126,1577,14,1437
343,Ashoknagar,24.576189,77.7302895,45,580,16,519
344,Balaghat,21.966667,80.333333,218,2046,10,1818
345,Barwani,21.75194325,74.89175175338488,98,2104,21,1985
346,Betul,21.8796162,77.87568124563079,312,2490,56,2122
347,Bhind,26.5,78.75,20,1106,7,1079
348,Bhopal,23.2584857,77.401989,1713,23870,469,21688
349,Burhanpur,26.2697215,82.99442536730413,7,780,26,747
350,Chhatarpur,24.75,79.75,53,1509,29,1427
351,Chhindwara,22.139831049999998,78.80964495467987,67,2213,36,2110
352,Damoh,23.75,79.583333,133,2054,58,1863
353,Datia,25.75,78.5,68,1385,19,1298
354,Dewas,23.0,76.166667,46,1856,23,1787
355,Dhar,22.5,75.25,187,2743,46,2510
356,Dindori,20.25527235,73.80730056332233,68,693,1,624
357,Guna,24.5,77.5,51,898,15,832
358,Gwalior,26.2037247,78.1573628,324,12129,158,11647
359,Harda,22.3388828,77.0929933,121,1367,24,1222
360,Hoshangabad,22.6001502,77.92664521413192,67,2850,45,2738
361,Indore,22.7203616,75.8681996,3340,33459,679,29440
362,Jabalpur,23.1608938,79.9497702,751,12589,198,11640
363,Jhabua,22.88585225,74.72513368804519,96,1688,15,1577
364,Katni,23.8339621,80.392456,26,1730,15,1689
365,Khandwa,21.9778642,76.5688282326971,59,1777,48,1670
366,Khargone,21.8187743,75.6064577,117,3820,60,3643
367,Mandla,22.68536625,80.58150561711888,52,998,9,937
368,Mandsaur,24.2651306,75.38718193725012,98,2015,22,1895
369,Morena,26.166667,77.5,37,2753,23,2693
370,Narsinghpur,22.9467047,79.1980228,67,3009,27,2915
371,Neemuch,24.63044655,75.18339614635457,107,2362,35,2220
372,Niwari,25.312470400000002,78.66785016924982,16,419,1,402
373,Panna,24.5,80.25,28,806,3,775
374,Raisen,23.25,78.083333,145,1722,32,1545
375,Rajgarh,23.87167135,76.7748902040889,118,1628,35,1475
376,Ratlam,23.501957750000003,74.95284518680097,183,2437,53,2201
377,Rewa,24.75926685,81.65500021078341,242,2436,29,2165
378,Sagar,23.80961225,78.75911360578634,378,3382,121,2883
379,Satna,24.5,81.0,74,2189,37,2078
380,Sehore,23.1156882,77.06623939176504,103,2081,48,1930
381,Seoni,22.275878900000002,79.721044651047,61,1238,8,1169
382,Shahdol,23.6522784,81.4302644405692,104,2567,27,2436
383,Shajapur,23.37074105,76.62051527475785,87,1219,20,1112
384,Sheopur,25.6656611,76.6954843,68,1039,10,961
385,Shivpuri,25.37524125,77.82811932629714,100,2737,24,2613
386,Sidhi,24.25,82.0,154,1322,10,1158
387,Singrauli,24.1974432,82.6661453,125,1319,25,1169
388,Tikamgarh,24.85450275,79.04698123882801,23,972,26,923
389,Ujjain,23.174597,75.7851423,170,3493,97,3226
390,Umaria,23.64319305,80.94239522009255,61,911,12,838
391,Vidisha,23.916667,78.0,113,2087,46,1928
392,Aizawl,23.7414092,92.7209297,215,1641,0,1426
393,Champhai,23.69082385,93.34839119913778,2,26,0,24
394,Hnahthial,22.9663656,93.01026448504744,8,13,0,5
395,Khawzawl,23.53892045,93.1586839061471,2,6,0,4
396,Kolasib,24.18947525,92.7133181281124,14,252,0,238
397,Lawngtlai,22.34596495,92.8119536068969,9,91,0,82
398,Lunglei,22.898553,92.75192291719874,11,278,0,267
399,Mamit,23.75590845,92.45173568830637,2,55,0,53
400,Saiha,22.4995518,92.97798988717027,0,31,0,31
401,Saitual,23.6929995,92.965428,0,14,0,14
402,Serchhip,23.385892300000002,92.930598908176,21,86,0,65
404,Dimapur,25.9135914,93.7283707,1348,4676,21,3257
405,Kiphire,25.81551155,94.84166400470303,10,26,0,16
406,Kohima,25.75,94.166667,305,2536,2,2215
407,Longleng,26.49031725,94.77214247303138,0,18,0,11
408,Mokokchung,26.4795861,94.51052754768273,49,108,1,57
409,Mon,26.8038,94.9767,68,503,2,425
410,Peren,25.47907705,93.72563659313207,19,385,0,366
411,Phek,25.75,94.5,0,37,0,37
412,Tuensang,26.168505500000002,94.85819821659115,20,152,0,132
413,Wokha,26.166667,94.25,1,38,1,36
414,Zunheboto,26.0,94.5,13,138,0,122
415,State Pool,42.56134215,-71.78221147945357,449,7338,0,6889
416,Angul,20.8382426,85.0973949,900,7741,19,6822
417,Balangir,20.75,83.25,657,6472,30,5785
418,Balasore,21.5002888,86.9202627,676,9960,71,9213
419,Bargarh,21.3474637,83.65427922282043,530,8457,19,7908
420,Bhadrak,21.0633288,86.5053731,372,6616,23,6221
421,Boudh,20.8415619,84.3213321,196,2521,9,2316
422,Cuttack,20.4686,85.8792,1300,25447,109,24038
423,Deogarh,21.5370786,84.7301184,83,1013,1,929
424,Dhenkanal,20.75,85.5,370,4965,18,4577
425,Gajapati,19.19557415,84.19297736346317,51,3827,30,3746
426,Ganjam,19.4129711,85.04710406447731,163,21074,235,20676
427,Jagatsinghpur,20.2593872,86.1660878,758,7228,21,6449
428,Jajpur,20.8522696,86.3385714,602,10680,20,10058
429,Jharsuguda,21.87705125,84.00905063735019,251,6215,11,5953
430,Kalahandi,19.75,83.0,497,4957,20,4440
431,Kandhamal,20.13069385,84.07904760590154,199,5585,29,5357
432,Kendrapara,20.50040085,86.43170622796478,668,7339,20,6651
433,Kendujhar,21.5892323,85.66878413736906,487,6107,20,5600
434,Khordha,20.22564715,85.56059465125232,2106,47857,229,45522
435,Koraput,18.7232023,82.60811827787269,398,7250,13,6839
436,Malkangiri,18.35835435,81.89823748747048,302,4736,19,4415
437,Mayurbhanj,21.75,86.5,876,11018,60,10082
438,Nabarangapur,19.60962325,82.29876854111501,417,5138,13,4708
439,Nayagarh,20.1160666,85.11195643843573,319,5856,39,5498
440,Nuapada,20.769099750000002,82.51862845874122,596,5383,10,4777
441,Puri,19.8076083,85.8252538,546,12279,85,11648
442,Rayagada,18.965998550000002,84.19287455014992,119,8035,40,7876
443,Sambalpur,21.4,83.883333,385,7857,31,7441
444,Subarnapur,27.2274941,84.71486464642322,330,4344,14,4000
445,Sundargarh,22.13327195,83.97965279931319,909,10647,67,9671
446,Amritsar,31.6343083,74.8736788,277,11709,445,10987
447,Barnala,30.3704685,75.504017418548,188,2050,49,1813
448,Bathinda,30.17911535,75.04710156312628,336,6933,144,6453
449,Faridkot,30.60092505,74.79477422840449,144,3159,54,2961
450,Fatehgarh Sahib,30.6600764,76.38002163710028,61,2142,99,1982
451,Fazilka,30.336099599999997,74.11794319222481,161,2931,47,2723
452,Ferozepur,30.6839733,76.3594033,152,4166,121,3893
453,Gurdaspur,31.904229899999997,75.22738141098935,177,6832,196,6459
454,Hoshiarpur,31.60857425,75.84644246890946,217,6034,206,5611
455,Jalandhar,31.29201065,75.56805772253911,539,14813,460,13814
456,Kapurthala,31.38524095,75.30552273989395,141,4002,165,3696
457,Ludhiana,30.9090157,75.851601,208,20046,830,19008
458,Mansa,29.8769971,75.4889866137018,80,1879,35,1764
459,Moga,30.7839866,75.16057422541162,25,2445,79,2341
460,Pathankot,32.301710400000005,75.65864246622084,145,4374,107,4122
461,Patiala,30.2090874,76.3398720856221,281,12650,374,11995
462,Rupnagar,31.09168085,76.5272673916138,169,2432,111,2152
463,S.A.S. Nagar,30.8823935,75.8703501,559,12120,233,11328
464,Sangrur,30.2093363,75.8184224340909,80,3869,164,3625
466,Sri Muktsar Sahib,30.4692,74.5182,148,2952,61,2743
467,Tarn Taran,31.32124525,74.84130629340785,88,1981,84,1809
468,Karaikal,11.7003,75.5425,237,3374,55,3082
469,Mahe,-4.68379555,55.49263800753758,129,839,6,704
470,Puducherry,10.91564885,79.80694879844232,3306,28213,485,24422
471,Yanam,16.7333666,82.2145164,86,1910,42,1782
472,Ajmer,26.4691,74.639,264,9463,136,9063
473,Alwar,27.639077049999997,76.6144524902045,380,14423,53,13990
474,Banswara,23.4930788,74.34840231310622,84,1492,26,1382
475,Baran,24.9171512,76.69640322489136,94,1478,26,1358
476,Barmer,25.5819034,71.61966242777196,190,3312,34,3088
477,Bharatpur,27.26521245,77.36912554739122,230,5655,92,5333
478,Bhilwara,25.48877345,74.69961283584024,170,5811,30,5611
479,Bikaner,28.0159286,73.3171367,1093,12550,136,11321
480,BSF Camp,23.2200507,69.6614313,0,85,0,85
481,Bundi,25.5,75.833333,113,1449,9,1327
482,Chittorgarh,24.718026000000002,74.47214697200876,168,2215,28,2019
483,Churu,28.2061443,74.69190729963461,232,2793,22,2539
484,Dausa,26.80486585,76.44374569929329,137,1522,11,1374
485,Dholpur,26.7009896,77.8967857,85,3293,29,3179
487,Evacuees,51.4552682,-2.5898439,0,61,0,61
488,Ganganagar,23.7497214,91.87663495294915,317,3245,25,2903
490,Italians,-28.7975284,-52.51486055969363,0,2,0,2
491,Jaipur,26.916194,75.820349,4836,31701,365,26500
492,Jaisalmer,27.02801615,70.7785056232077,171,1167,14,982
493,Jalore,25.3476006,72.6260916,326,3666,36,3304
494,Jhalawar,24.3132368,76.52223626123003,94,2616,13,2509
495,Jhunjhunu,28.1287995,75.3992581,211,2677,27,2439
496,Jodhpur,26.2967719,73.0351433,4741,28220,178,23301
497,Karauli,26.51668105,77.05772976517363,95,1141,14,1032
498,Kota,25.1968256,76.00089330885552,323,10761,116,10322
499,Nagaur,27.0607859,74.17667537582712,305,5211,56,4850
500,Pali,25.6040908,73.41560878556902,214,7111,74,6823
501,Pratapgarh,25.87789395,81.82824248044966,51,920,14,855
502,Rajsamand,25.29131615,73.8244924740361,146,2380,28,2206
503,Sawai Madhopur,26.22914115,76.30453277017932,119,1116,21,976
504,Sikar,27.662826000000003,75.02792628691331,310,5706,53,5343
505,Sirohi,24.811404699999997,72.83002573160249,94,2358,25,2239
506,Tonk,26.12214725,75.66375373932236,98,1719,25,1596
507,Udaipur,24.578721,73.6862571,192,6583,68,6323
508,East Sikkim,27.601029,88.45413638680145,337,1446,3,1106
509,North Sikkim,27.601029,88.45413638680145,0,1,0,1
510,South Sikkim,27.601029,88.45413638680145,402,475,0,73
511,West Sikkim,27.601029,88.45413638680145,72,87,0,15
512,Adilabad,19.5,78.5,2077,2092,0,15
513,Bhadradri Kothagudem,17.71534525,80.57149761778712,5857,5861,0,4
514,Hyderabad,17.38878595,78.46106473453146,67333,67661,23,305
515,Jagtial,18.82135895,78.91506632525903,4454,4456,0,2
516,Jangaon,17.7265463,79.25901524867399,2829,2830,0,1
517,Jayashankar Bhupalapally,18.515987199999998,79.96939659792528,1742,1742,0,0
518,Jogulamba Gadwal,16.0999202,77.73415835077523,2947,2973,1,25
519,Kamareddy,18.316551,78.05393808043348,4684,4692,0,8
520,Karimnagar,18.4346438,79.1322648,10544,10560,0,16
521,Khammam,17.5,80.333333,7818,7821,0,3
523,Mahabubabad,17.7138983,80.04134252767227,4411,4412,0,1
524,Mahabubnagar,16.696568550000002,77.95911462089693,3931,3939,0,8
525,Mancherial,18.8761795,79.4449696,3833,3834,1,0
526,Medak,17.9375095,78.21174498510584,2796,2800,0,4
527,Medchal Malkajgiri,17.53498345,78.52463873502381,14432,14442,1,9
528,Mulugu,18.1932372,79.9413676,1926,1928,0,2
529,Nagarkurnool,16.415762649999998,78.68304333132829,3242,3244,0,2
530,Nalgonda,16.8579636,79.21749353315548,9587,9599,0,12
531,Narayanpet,16.700551750000002,77.61648447017446,981,982,1,0
532,Nirmal,19.091520950000003,78.39660898429065,1960,1973,0,13
533,Nizamabad,26.055317950000003,82.99313867937335,6851,6881,0,30
534,Peddapalli,18.62065305,79.49501710882896,4430,4431,0,1
535,Rajanna Sircilla,18.452116,78.76455837158737,3915,3917,0,2
536,Ranga Reddy,12.9554461,80.2530374,19145,19164,2,17
537,Sangareddy,17.86859205,77.8228199507381,6205,6211,0,6
538,Siddipet,18.005585099999998,78.89611304969961,6366,6367,0,1
539,Suryapet,17.08001385,79.7925329742427,5448,5472,0,24
540,Vikarabad,17.2702855,77.74529700637382,1763,1779,1,15
541,Wanaparthy,16.285294399999998,77.98644727021286,2918,2918,0,0
542,Warangal Rural,17.94854255,79.81612399359742,2815,2815,0,0
543,Warangal Urban,18.02625695,79.46444493996634,9098,9121,0,23
544,Yadadri Bhuvanagiri,17.42819665,79.09049097612105,2969,2969,0,0
545,Ariyalur,11.076035950000001,79.11745538182738,107,4331,46,4178
546,Chengalpattu,12.6840886,79.9836371,1239,42801,665,40897
547,Chennai,13.0801721,80.2838331,8859,196378,3596,183923
548,Coimbatore,11.0018115,76.9628425,3753,42084,538,37793
549,Cuddalore,11.74269375,79.75030644171935,716,22997,267,22014
550,Dharmapuri,12.09680475,78.19304301026716,458,5490,49,4983
551,Dindigul,10.3303299,78.0673979084697,254,9737,184,9299
552,Erode,11.369204400000001,77.67662686841793,807,9806,119,8880
553,Kallakurichi,11.7380142,78.963933,241,10170,102,9827
554,Kancheepuram,12.87960515,79.70427615297989,460,25182,377,24345
555,Kanyakumari,8.25,77.25,571,14723,242,13910
556,Karur,10.9301522,78.08485454572889,291,4010,43,3676
557,Krishnagiri,12.5188835,78.2206536,540,6363,104,5719
558,Madurai,9.833333,77.833333,606,18513,415,17492
559,Nagapattinam,10.805627600000001,79.824659783024,361,6517,111,6045
560,Namakkal,11.2191319,78.23739801779963,703,8758,93,7962
561,Nilgiris,11.4,76.7,244,6409,38,6127
562,Perambalur,11.2287716,78.81825554962782,72,2116,21,2023
563,Pudukkottai,10.5,78.833333,215,10464,149,10100
564,Ramanathapuram,9.3895523,78.85907071521498,138,5965,128,5699
565,Ranipet,11.6643,78.146,271,14718,176,14271
566,Salem,44.9391565,-123.033121,1829,26548,406,24313
567,Sivaganga,9.851231,78.53047154820716,135,5814,125,5554
568,Tenkasi,9.031895800000001,77.36536124793122,125,7791,153,7513
569,Thanjavur,10.7860267,79.1381497,368,15056,216,14472
570,Theni,9.969664300000002,77.47420048524822,127,16143,191,15825
571,Thiruvallur,13.13014755,79.92435386254967,1233,37269,615,35421
572,Thiruvarur,10.73618605,79.63318659437627,401,9446,91,8954
573,Thoothukkudi,8.756745200000001,78.07975266019861,500,14817,129,14188
574,Tiruchirappalli,10.804973,78.6870296,499,12297,167,11631
575,Tirunelveli,8.722388,77.710247,309,14106,208,13589
576,Tirupathur,12.453306399999999,78.55290857022919,288,6488,118,6082
577,Tiruppur,11.1017815,77.345192,977,12188,180,11031
578,Tiruvannamalai,12.22721295,79.07015554906167,506,17428,260,16662
579,Vellore,12.7948109,79.0006410968549,424,17567,303,16840
580,Viluppuram,11.9137874,79.50789297942772,455,13544,106,12983
581,Virudhunagar,9.5208936,77.8784563961865,187,15344,220,14937
582,Dhalai,23.8253158,91.9732226716333,176,3232,15,3040
583,Gomati,23.4613369,91.60718003817723,306,3663,38,3318
584,Khowai,24.04673835,91.62320953646798,42,1747,30,1675
585,North Tripura,24.092147599999997,92.24512135019847,137,2535,14,2377
587,South Tripura,23.5,91.666667,372,3224,18,2831
588,Unokoti,24.19098485,92.04604830534434,296,2467,20,2151
589,West Tripura,23.916667,91.5,476,10672,178,10007
590,Agra,27.1752554,78.0098161,371,7030,143,6516
591,Aligarh,27.87698975,78.13729027600994,243,9344,46,9055
592,Ambedkar Nagar,26.40349795,82.60728148676125,140,1708,36,1532
593,Amethi,26.34738315,81.6238783207884,151,2891,26,2714
594,Amroha,28.9233969,78.48831693262684,356,3663,42,3265
595,Auraiya,26.65573395,79.51504701181831,168,2729,35,2526
596,Ayodhya,26.7990707,82.2052321,243,6934,94,6597
597,Azamgarh,26.02269675,83.02887343114848,283,5296,84,4929
598,Baghpat,28.97240405,77.33315284938224,77,1474,24,1373
599,Bahraich,27.7336958,81.47732127661058,179,3637,65,3393
600,Ballia,25.877932549999997,84.11995931460379,403,6679,90,6186
601,Balrampur,25.452,80.5438,116,1777,26,1635
602,Banda,-36.3789925,-60.3855889,220,2646,31,2395
603,Barabanki,26.93823105,81.38609761204991,181,6906,78,6647
604,Bareilly,28.457876,79.40557093743058,572,11799,154,11073
605,Basti,26.724789,82.79326865024002,277,4420,85,4058
606,Bhadohi,25.422922749999998,82.48843708088575,141,1885,18,1726
607,Bijnor,29.40604895,78.48087839917878,267,3467,51,3149
608,Budaun,28.06831165,79.04607312079293,132,3100,41,2927
609,Bulandshahr,28.38886085,77.97479772598118,353,4398,71,3974
610,Chandauli,25.1265777,83.2496557733391,154,3757,44,3559
611,Chitrakoot,25.2195207,81.102282425,178,1726,12,1536
612,Deoria,26.42384715,83.76273169028727,218,6195,83,5894
613,Etah,27.5541146,78.60078640304634,139,2028,20,1869
614,Etawah,26.718324350000003,79.09025375025163,265,4744,72,4407
615,Farrukhabad,27.43719385,79.48912946503123,229,3830,56,3545
616,Fatehpur,25.8435395,80.91800397088501,239,2952,50,2663
617,Firozabad,27.17736635,78.38991197951182,89,2975,60,2826
618,Gautam Buddha Nagar,28.36760975,77.59740326369902,1070,16984,66,15848
619,Ghaziabad,28.711241,77.4445372,1141,18034,82,16811
620,Ghazipur,25.603508400000003,83.50745404887138,211,4389,65,4113
621,Gonda,27.1096669,81.9183291218813,251,4380,51,4078
622,Gorakhpur,26.67132865,83.36458284327038,974,18606,304,17328
623,Hamirpur,25.81986155,79.86324262584287,63,1268,19,1186
624,Hapur,28.740612499999997,77.83542556519009,188,3206,57,2961
625,Hardoi,27.33857665,80.0975264641719,235,5222,91,4896
626,Hathras,27.57324325,78.11173866751716,37,1110,7,1066
627,Jalaun,26.105546,79.42765264782076,170,2824,33,2621
628,Jaunpur,25.7955927,82.48834097504385,223,5724,81,5420
629,Jhansi,25.531031149999997,78.65268901605349,272,8243,168,7803
630,Kannauj,26.999697400000002,79.68861212775874,106,2985,40,2839
631,Kanpur Dehat,26.4600465,79.85550999615592,239,1836,27,1570
632,Kanpur Nagar,26.4402119,80.26930513416637,1035,27602,724,25843
633,Kasganj,27.883846050000002,78.63489003747873,199,1570,4,1367
634,Kaushambi,25.53609455,81.44672838764605,129,1875,23,1723
635,Kushinagar,26.92383485,83.83255026925798,308,5297,54,4935
636,Lakhimpur Kheri,27.985060150000002,80.75384538357649,508,6538,69,5961
637,Lalitpur,24.70038485,78.51866758648349,131,2847,42,2674
638,Lucknow,26.8381,80.9346001,3415,62060,862,57783
639,Maharajganj,27.09254225,83.56696261338257,200,5373,85,5088
640,Mahoba,25.36176885,79.70499475331877,58,1043,9,976
641,Mainpuri,27.2098219,79.04813700847944,153,3083,50,2880
642,Mathura,27.60183935,77.58715876395613,405,4861,100,4356
643,Mau,26.0376878,83.49793418499047,156,2772,35,2581
644,Meerut,28.916667,77.683333,1316,13073,315,11442
645,Mirzapur,24.9356347,82.64770129811649,169,2824,31,2624
646,Moradabad,28.8638424,78.80577833091104,542,10331,165,9624
647,Muzaffarnagar,29.44800635,77.74068502568672,411,5927,79,5437
648,Pilibhit,28.495207649999998,80.10754080018077,73,3688,73,3542
649,Pratapgarh,25.87789395,81.82824248044966,285,4325,53,3987
650,Prayagraj,25.4381302,81.8338005,1318,23313,322,21673
651,Rae Bareli,26.25,81.25,301,3784,93,3390
652,Rampur,28.79406825,79.1859304458554,112,4995,47,4836
653,Saharanpur,29.9880774,77.5081299470512,232,7715,118,7365
654,Sambhal,28.61875255,78.55087405404804,205,2699,39,2455
655,Sant Kabir Nagar,26.7882737,82.9600798,94,2931,40,2797
656,Shahjahanpur,27.912633149999998,79.74656294869826,215,6277,90,5972
657,Shamli,29.5008816,77.34838258540861,138,2805,26,2641
658,Shrawasti,27.2716,82.821,53,1091,13,1025
660,Sitapur,27.5046392,80.82946583420815,274,4182,58,3850
661,Sonbhadra,24.38657525,83.07863061278505,417,3614,50,3147
662,Sultanpur,26.242510850000002,82.29616931685918,272,3875,64,3539
663,Unnao,26.57550365,80.61376177782856,350,3942,74,3518
664,Varanasi,25.3356491,83.0076292,1385,17268,323,15560
665,Almora,29.703094999999998,79.43317023326716,119,1810,9,1657
666,Bageshwar,30.0086722,79.9302967950447,111,892,8,773
667,Chamoli,30.499632300000002,79.61879245944404,192,1701,1,1484
668,Champawat,29.23631315,80.10172076512075,137,1117,6,966
669,Dehradun,30.3255646,78.0436813,983,16861,573,15153
670,Haridwar,29.9384473,78.1452985,424,10864,121,10257
671,Nainital,29.2031392,79.4176945,456,7142,142,6507
672,Pauri Garhwal,29.84591115,78.70766746320547,483,2777,29,2241
673,Pithoragarh,30.12666775,80.48338013734374,180,1427,5,1242
674,Rudraprayag,30.3009965,79.06287964782695,184,1131,2,944
675,Tehri Garhwal,30.5,78.666667,221,2982,5,2744
676,Udham Singh Nagar,29.048098799999998,79.4313133223357,320,9394,91,8889
677,Uttarkashi,30.9654214,78.63368731187963,270,2646,9,2331
678,Alipurduar,26.4851573,89.5246926,429,6251,75,5747
679,Bankura,23.13195425,87.20739720367507,752,7468,71,6645
680,Birbhum,24.0,87.583333,814,5811,51,4946
681,Cooch Behar,26.3223696,89.4592445,978,8135,51,7106
682,Dakshin Dinajpur,25.38703085,88.50471504999999,609,6757,49,6099
683,Darjeeling,27.0383718,88.2617544,1431,10870,138,9301
684,Hooghly,22.9052114,88.3760639,1898,17344,299,15147
685,Howrah,22.5736296,88.3251045,1440,24193,713,22040
686,Jalpaiguri,26.626483649999997,88.73407701468993,1246,8600,85,7269
687,Jhargram,22.3770636,87.04867177362203,371,1642,10,1261
688,Kalimpong,27.07169,88.4729,122,1381,13,1246
689,Kolkata,22.5726723,88.3638815,7253,76808,2125,67430
690,Malda,25.0057449,88.1398483,1057,9279,77,8145
691,Murshidabad,24.1745993,88.2721335,966,8249,93,7190
692,Nadia,23.48454125,88.55676307470536,1898,11355,133,9324
693,North 24 Parganas,22.7182799,88.64248090898516,7093,71831,1497,63241
694,Paschim Bardhaman,23.64260775,87.16448126068323,1181,9785,94,8510
695,Paschim Medinipur,22.3599134,87.41331447600871,1741,13463,202,11520
696,Purba Bardhaman,23.391717,87.90621212355462,1115,7311,71,6125
697,Purba Medinipur,22.06382145,87.74573460267038,1390,14275,181,12704
698,Purulia,23.032189,89.5911025,619,4983,26,4338
699,South 24 Parganas,22.1815262,88.53780483989941,2446,23359,438,20475
700,Uttar Dinajpur,25.8707958,87.96259728449391,341,4606,51,4214
701,North and Middle Andaman,12.61123865,92.83165406414926,0,1,0,1
702,South Andaman,10.7056905,92.48746789633373,19,51,0,32
703,Anantapur,14.6546235,77.55625984224562,1258,63719,551,61910
704,Chittoor,13.1601048,79.15555061803596,3018,76849,769,73062
705,East Godavari,17.233496,81.7225986,5069,113673,603,108001
706,Guntur,16.2915189,80.4541588,3614,65346,609,61123
707,Krishna,16.6691525,80.7190024,3414,37222,551,33257
708,Kurnool,15.8309251,78.0425373,520,59286,481,58285
709,Prakasam,14.4426,79.9865,2159,58663,567,55937
711,Srikakulam,18.32002205,83.91607719937166,1133,43551,339,42079
712,Visakhapatnam,17.7231276,83.3012842,2150,55209,502,52557
713,Vizianagaram,18.1120819,83.4052196224888,406,38953,228,38319
714,West Godavari,17.0,81.166667,4221,83224,490,78513
715,Y.S.R. Kadapa,14.4752936,78.8216861,1576,51252,431,49245
716,Anjaw,28.1114301,96.82699963398373,3,163,0,160
717,Changlang,27.1398402,95.7382485,50,1128,3,1075
718,East Kameng,27.3,93.05,5,300,0,295
719,East Siang,28.3,95.15,110,886,4,772
720,Kamle,27.629,84.7645667,4,25,0,21
721,Kra Daadi,27.96354175,93.76656538768381,4,33,0,29
722,Kurung Kumey,27.98636765,93.15783468644102,0,107,0,107
723,Lepa Rada,27.9211266,94.74093620019156,10,179,0,169
724,Lohit,28.035016149999997,96.17135154220676,97,513,0,416
725,Longding,26.879454600000003,95.3155652456941,13,222,0,209
726,Lower Dibang Valley,28.21495625,95.87877403567019,60,350,0,290
727,Lower Siang,27.80069825,94.56502334121075,3,272,0,269
728,Lower Subansiri,27.8,93.6,24,310,1,285
729,Namsai,27.71403055,96.01597093953018,69,364,3,292
730,Pakke Kessang,27.15828555,93.15615024389129,10,107,0,97
731,Papum Pare,27.286366649999998,93.61875168206382,1189,6106,17,4900
732,Shi Yomi,28.68516625,94.23678241115617,2,29,0,27
733,Siang,28.477491999999998,94.81655728795752,35,101,0,66
734,Tawang,27.5879186,91.863733,24,352,1,327
735,Tirap,27.03016895,95.49791754505583,51,517,0,466
736,Upper Dibang Valley,28.7,95.7,1,21,0,20
737,Upper Siang,28.73120455,95.03773151350946,68,269,0,201
738,Upper Subansiri,28.3,94.0,56,398,1,341
739,West Kameng,27.4,92.35,98,699,3,598
740,West Siang,28.4,94.55,188,940,2,750
